[
  {
    "model": "spritstat.station",
    "pk": 1,
    "fields": {
      "name": "TAC",
      "address": "Taborstraße 102-108 ",
      "postal_code": "1200",
      "city": "Wien",
      "latitude": "48.2270659",
      "longitude": "16.3870746"
    }
  },
  {
    "model": "spritstat.station",
    "pk": 2,
    "fields": {
      "name": "BP",
      "address": "Handelskai 90",
      "postal_code": "1200",
      "city": "Wien",
      "latitude": "48.2430922",
      "longitude": "16.3843336"
    }
  },
  {
    "model": "spritstat.station",
    "pk": 3,
    "fields": {
      "name": "Disk",
      "address": "Franzensbrückenstrasse 15",
      "postal_code": "1020",
      "city": "Wien",
      "latitude": "48.2146367",
      "longitude": "16.3916044"
    }
  },
  {
    "model": "spritstat.station_users",
    "pk": 1,
    "fields": {
      "station": 1,
      "customuser": 2
    }
  },
  {
    "model": "spritstat.station_users",
    "pk": 2,
    "fields": {
      "station": 2,
      "customuser": 2
    }
  },
  {
    "model": "spritstat.station_users",
    "pk": 3,
    "fields": {
      "station": 2,
      "customuser": 4
    }
  },
  {
    "model": "spritstat.station_users",
    "pk": 4,
    "fields": {
      "station": 3,
      "customuser": 4
    }
  }
]